[
  {
    "assetPath": "BUILDINGS/IPN/building_escom.webp",
    "id": 1,
    "latitude": 19.504594288807827,
    "longitude": -99.14673364364556,
    "name": "Edificio ESCOM",
    "rotationAngle": 23.80093,
    "scaleFactor": 1.0258439
  },
  {
    "assetPath": "BUILDINGS/IPN/plaza_torres.webp",
    "id": 2,
    "latitude": 19.506550602943516,
    "longitude": -99.14413948878561,
    "name": "Plaza Torres",
    "rotationAngle": 0.0,
    "scaleFactor": 1.0029263
  },
  {
    "assetPath": "BUILDINGS/IPN/cic_edificios.webp",
    "id": 3,
    "latitude": 19.502793905236064,
    "longitude": -99.14758337104784,
    "name": "CIC",
    "rotationAngle": 23.587322,
    "scaleFactor": 1.0695213
  },
  {
    "assetPath": "BUILDINGS/IPN/coyote_de_neza.webp",
    "id": 4,
    "latitude": 19.39979136155635,
    "longitude": -99.02897079430511,
    "name": "COYOTE DE NEZA",
    "rotationAngle": 0.0,
    "scaleFactor": 1.4665562
  },
  {
    "assetPath": "BUILDINGS/IPN/fes_aragon.webp",
    "id": 5,
    "latitude": 19.474867,
    "longitude": -99.04334399999986,
    "name": "FES ARAGON",
    "rotationAngle": 11.769556,
    "scaleFactor": 1.0136231
  },
  {
    "assetPath": "DOORS/ESCOM_DOOR.webp",
    "id": 14,
    "latitude": 19.5051,
    "longitude": -99.14619999999998,
    "name": "Puerta ESCOM",
    "rotationAngle": 295.54773,
    "scaleFactor": 1.1525397
  }
]
